{
  "states": [
    {
      "name": "Maharashtra",
      "code": "MH",
      "lat": 19.7515,
      "lng": 75.7139,
      "installedCapacity": 42800,
      "demand": 38500,
      "renewableShare": 28,
      "coalShare": 55,
      "gasShare": 12,
      "hydroShare": 5,
      "riskScore": 42,
      "transmissionCongestion": 0.65,
      "importDependency": 0.18,
      "peakDemand": 44200
    },
    {
      "name": "Uttar Pradesh",
      "code": "UP",
      "lat": 26.8467,
      "lng": 80.9462,
      "installedCapacity": 26500,
      "demand": 24800,
      "renewableShare": 14,
      "coalShare": 72,
      "gasShare": 8,
      "hydroShare": 6,
      "riskScore": 68,
      "transmissionCongestion": 0.82,
      "importDependency": 0.35,
      "peakDemand": 28500
    },
    {
      "name": "Gujarat",
      "code": "GJ",
      "lat": 22.2587,
      "lng": 71.1924,
      "installedCapacity": 38200,
      "demand": 28900,
      "renewableShare": 48,
      "coalShare": 38,
      "gasShare": 10,
      "hydroShare": 4,
      "riskScore": 28,
      "transmissionCongestion": 0.42,
      "importDependency": 0.08,
      "peakDemand": 33100
    },
    {
      "name": "Rajasthan",
      "code": "RJ",
      "lat": 27.0238,
      "lng": 74.2179,
      "installedCapacity": 24600,
      "demand": 16800,
      "renewableShare": 62,
      "coalShare": 28,
      "gasShare": 6,
      "hydroShare": 4,
      "riskScore": 22,
      "transmissionCongestion": 0.35,
      "importDependency": 0.05,
      "peakDemand": 19200
    },
    {
      "name": "Tamil Nadu",
      "code": "TN",
      "lat": 11.1271,
      "lng": 78.6569,
      "installedCapacity": 32100,
      "demand": 24500,
      "renewableShare": 52,
      "coalShare": 34,
      "gasShare": 8,
      "hydroShare": 6,
      "riskScore": 31,
      "transmissionCongestion": 0.48,
      "importDependency": 0.12,
      "peakDemand": 28100
    },
    {
      "name": "Andhra Pradesh",
      "code": "AP",
      "lat": 15.9129,
      "lng": 79.74,
      "installedCapacity": 21400,
      "demand": 17200,
      "renewableShare": 44,
      "coalShare": 40,
      "gasShare": 8,
      "hydroShare": 8,
      "riskScore": 35,
      "transmissionCongestion": 0.52,
      "importDependency": 0.15,
      "peakDemand": 20100
    },
    {
      "name": "Karnataka",
      "code": "KA",
      "lat": 15.3173,
      "lng": 75.7139,
      "installedCapacity": 28800,
      "demand": 22100,
      "renewableShare": 58,
      "coalShare": 28,
      "gasShare": 6,
      "hydroShare": 8,
      "riskScore": 26,
      "transmissionCongestion": 0.38,
      "importDependency": 0.09,
      "peakDemand": 25500
    },
    {
      "name": "Madhya Pradesh",
      "code": "MP",
      "lat": 22.9734,
      "lng": 78.6569,
      "installedCapacity": 22100,
      "demand": 16500,
      "renewableShare": 38,
      "coalShare": 52,
      "gasShare": 4,
      "hydroShare": 6,
      "riskScore": 44,
      "transmissionCongestion": 0.58,
      "importDependency": 0.22,
      "peakDemand": 19800
    },
    {
      "name": "West Bengal",
      "code": "WB",
      "lat": 22.9868,
      "lng": 87.855,
      "installedCapacity": 14800,
      "demand": 14200,
      "renewableShare": 18,
      "coalShare": 68,
      "gasShare": 10,
      "hydroShare": 4,
      "riskScore": 62,
      "transmissionCongestion": 0.75,
      "importDependency": 0.28,
      "peakDemand": 16400
    },
    {
      "name": "Punjab",
      "code": "PB",
      "lat": 31.1471,
      "lng": 75.3412,
      "installedCapacity": 12400,
      "demand": 11800,
      "renewableShare": 22,
      "coalShare": 58,
      "gasShare": 14,
      "hydroShare": 6,
      "riskScore": 55,
      "transmissionCongestion": 0.68,
      "importDependency": 0.32,
      "peakDemand": 14100
    },
    {
      "name": "Haryana",
      "code": "HR",
      "lat": 29.0588,
      "lng": 76.0856,
      "installedCapacity": 11200,
      "demand": 10800,
      "renewableShare": 26,
      "coalShare": 58,
      "gasShare": 10,
      "hydroShare": 6,
      "riskScore": 58,
      "transmissionCongestion": 0.72,
      "importDependency": 0.30,
      "peakDemand": 12600
    },
    {
      "name": "Odisha",
      "code": "OR",
      "lat": 20.9517,
      "lng": 85.0985,
      "installedCapacity": 14500,
      "demand": 9800,
      "renewableShare": 24,
      "coalShare": 62,
      "gasShare": 4,
      "hydroShare": 10,
      "riskScore": 38,
      "transmissionCongestion": 0.44,
      "importDependency": 0.10,
      "peakDemand": 11500
    },
    {
      "name": "Kerala",
      "code": "KL",
      "lat": 10.8505,
      "lng": 76.2711,
      "installedCapacity": 8200,
      "demand": 7600,
      "renewableShare": 42,
      "coalShare": 18,
      "gasShare": 8,
      "hydroShare": 32,
      "riskScore": 48,
      "transmissionCongestion": 0.62,
      "importDependency": 0.38,
      "peakDemand": 8900
    },
    {
      "name": "Jharkhand",
      "code": "JH",
      "lat": 23.6102,
      "lng": 85.2799,
      "installedCapacity": 8800,
      "demand": 5400,
      "renewableShare": 16,
      "coalShare": 74,
      "gasShare": 4,
      "hydroShare": 6,
      "riskScore": 52,
      "transmissionCongestion": 0.55,
      "importDependency": 0.18,
      "peakDemand": 6500
    },
    {
      "name": "Chhattisgarh",
      "code": "CG",
      "lat": 21.2787,
      "lng": 81.8661,
      "installedCapacity": 14200,
      "demand": 8200,
      "renewableShare": 18,
      "coalShare": 72,
      "gasShare": 2,
      "hydroShare": 8,
      "riskScore": 34,
      "transmissionCongestion": 0.40,
      "importDependency": 0.08,
      "peakDemand": 9800
    },
    {
      "name": "Telangana",
      "code": "TG",
      "lat": 18.1124,
      "lng": 79.0193,
      "installedCapacity": 15800,
      "demand": 13200,
      "renewableShare": 38,
      "coalShare": 48,
      "gasShare": 8,
      "hydroShare": 6,
      "riskScore": 40,
      "transmissionCongestion": 0.56,
      "importDependency": 0.20,
      "peakDemand": 15400
    },
    {
      "name": "Bihar",
      "code": "BR",
      "lat": 25.0961,
      "lng": 85.3131,
      "installedCapacity": 6800,
      "demand": 7800,
      "renewableShare": 12,
      "coalShare": 68,
      "gasShare": 6,
      "hydroShare": 14,
      "riskScore": 82,
      "transmissionCongestion": 0.88,
      "importDependency": 0.52,
      "peakDemand": 9200
    },
    {
      "name": "Assam",
      "code": "AS",
      "lat": 26.2006,
      "lng": 92.9376,
      "installedCapacity": 3200,
      "demand": 2800,
      "renewableShare": 20,
      "coalShare": 42,
      "gasShare": 28,
      "hydroShare": 10,
      "riskScore": 60,
      "transmissionCongestion": 0.70,
      "importDependency": 0.42,
      "peakDemand": 3400
    },
    {
      "name": "Himachal Pradesh",
      "code": "HP",
      "lat": 31.1048,
      "lng": 77.1734,
      "installedCapacity": 10800,
      "demand": 2400,
      "renewableShare": 88,
      "coalShare": 2,
      "gasShare": 2,
      "hydroShare": 86,
      "riskScore": 18,
      "transmissionCongestion": 0.22,
      "importDependency": 0.02,
      "peakDemand": 2900
    },
    {
      "name": "Uttarakhand",
      "code": "UK",
      "lat": 30.0668,
      "lng": 79.0193,
      "installedCapacity": 4200,
      "demand": 2600,
      "renewableShare": 72,
      "coalShare": 12,
      "gasShare": 4,
      "hydroShare": 68,
      "riskScore": 24,
      "transmissionCongestion": 0.30,
      "importDependency": 0.08,
      "peakDemand": 3100
    }
  ]
}
